{
"type": "FeatureCollection",
"name": "kindergartens_tbilisi_1",
"features": [
{ "type": "Feature", "properties": { "id": 192, "name": "საბავშვო ბაგა-ბაღი ვარსკვლავები", "name_location": "9 Ilia Chavchavadze Street, Tbilisi", "phone": "00995322922323", "type": "კერძო საბავშვო ბაღი", "email": "info@varskvlavebi.ge", "registration_code": null, "facebook_link": "https://varskvlavebi.ge", "image": null, "phone_1": "00995596922323" }, "geometry": { "type": "Point", "coordinates": [ 44.7761709, 41.6877057 ] } },
{ "type": "Feature", "properties": { "id": 3, "name": "ბაღი 70", "name_location": "გოძიაშვილის II შესახვევი 10 (ვაშლიჯვარი)", "phone": "00995322527462", "type": "საჯარო ბაგა-ბაღი" }, "geometry": { "type": "Point", "coordinates": [ 44.763640029280197, 41.7538125714999 ] } },
{ "type": "Feature", "properties": { "id": 4, "name": "ბაღი 87", "name_location": "ცაგარელის 102", "phone": "00995322370947", "type": "საჯარო ბაგა-ბაღი" }, "geometry": { "type": "Point", "coordinates": [ 44.759904237449753, 41.723424608300547 ] } },
{ "type": "Feature", "properties": { "id": 5, "name": "ბაღი 97", "name_location": "გაგარინის შეს., იმედაშვილის 18/17", "phone": "00995599870163", "type": "საჯარო ბაგა-ბაღი" }, "geometry": { "type": "Point", "coordinates": [ 44.768347675440054, 41.733502299223503 ] } },
{ "type": "Feature", "properties": { "id": 6, "name": "ბაღი 112", "name_location": "ფანასკერტელ-ციციშვილის 14", "phone": "00995322361488", "type": "საჯარო ბაგა-ბაღი" }, "geometry": { "type": "Point", "coordinates": [ 44.767291275577151, 41.718778292763204 ] } },
{ "type": "Feature", "properties": { "id": 7, "name": "ბაღი 117", "name_location": "შარტავას 31", "phone": "00995322374373", "type": "საჯარო ბაგა-ბაღი" }, "geometry": { "type": "Point", "coordinates": [ 44.773135630812348, 41.727841165785051 ] } },
{ "type": "Feature", "properties": { "id": 8, "name": "ბაღი 158", "name_location": "ყაზბეგის 35", "phone": "00995322397093", "type": "საჯარო ბაგა-ბაღი" }, "geometry": { "type": "Point", "coordinates": [ 44.749006340639852, 41.725125612093748 ] } },
{ "type": "Feature", "properties": { "id": 9, "name": "ბაღი 197", "name_location": "გიორგი ბრწყინვალეს 5ა (დიდი დიღომი I მ/რ)", "phone": "00995322535597", "type": "საჯარო ბაგა-ბაღი" }, "geometry": { "type": "Point", "coordinates": [ 44.761322641847997, 41.790605936377553 ] } },
{ "type": "Feature", "properties": { "id": 10, "name": "ბაღი 198", "name_location": "პეტრიწის 15ა (დიდი დიღომი)", "phone": "00995322535598", "type": "საჯარო ბაგა-ბაღი" }, "geometry": { "type": "Point", "coordinates": [ 44.756640464876952, 41.794374949755451 ] } },
{ "type": "Feature", "properties": { "id": 11, "name": "ბაღი 208", "name_location": "დავით აღმაშენებლის ხეივანი მე-12 კილომეტრი (დიდი დიღომი)", "phone": "00995322596966", "type": "საჯარო ბაგა-ბაღი" }, "geometry": { "type": "Point", "coordinates": [ 44.776609693858994, 41.79795396131918 ] } },
{ "type": "Feature", "properties": { "id": 12, "name": "ბაღი 211", "name_location": "ალექსიძის II ჩიხი 4", "phone": "00995322337197", "type": "საჯარო ბაგა-ბაღი", "email": "mariamliparteliani@yahoo.com", "registration_code": 211351972, "facebook_link": "https://www.facebook.com/p/211საბავშვო-ბაგა-ბაღი211baga-bagi-100057382062220/", "image": "https://scontent-cph2-1.xx.fbcdn.net/v/t1.6435-9/150613400_2923313834610143_4622109564057987734_n.jpg?_nc_cat=105&ccb=1-7&_nc_sid=833d8c&_nc_ohc=1Y1hcs7D-FMQ7kNvwHqPtOD&_nc_oc=AdneggULp0ZAfyGbpYPode7F4ULOs5n6FErfoH-0twqd_fVrDON6FhEL94jAnmNrFHgv5gE1N8CSQUWLU71Pnp8P&_nc_zt=23&_nc_ht=scontent-cph2-1.xx&_nc_gid=N29ygYRJJJ9AaWBP751iDA&oh=00_Afdz1FaGUD3iDwYsUoEdPcgYqe89G6vLe8-8IN3zTDmkuw&oe=69288F0F" }, "geometry": { "type": "Point", "coordinates": [ 44.783729134216046, 41.7155065611799 ] } },
{ "type": "Feature", "properties": { "id": 13, "name": "ბაღი 212", "name_location": "დიდი დიღომი III მ/რ", "phone": "00995322534289", "type": "საჯარო ბაგა-ბაღი", "email": "212sabavshvobagabagi@gmail.com", "registration_code": 211351721, "phone_1": "" }, "geometry": { "type": "Point", "coordinates": [ 44.741803110947998, 41.7891787803635 ] } },
{ "type": "Feature", "properties": { "id": 14, "name": "ბაღი 213", "name_location": "დიდი დიღომი III მ/რ", "phone": "00995322535219", "type": "საჯარო ბაგა-ბაღი", "email": "nino.lomineishvili213bagi@gmail.com", "registration_code": 211362149, "phone_1": "" }, "geometry": { "type": "Point", "coordinates": [ 44.74744042151265, 41.789666558039521 ] } },
{ "type": "Feature", "properties": { "id": 15, "name": "ბაღი 122 იმედი", "name_location": "ბახტრიონის 8", "phone": "00995322366497", "type": "საჯარო ბაგა-ბაღი" }, "geometry": { "type": "Point", "coordinates": [ 44.773255214625451, 41.720537842221404 ] } },
{ "type": "Feature", "properties": { "id": 16, "name": "ბაღი 171 ქორბუდა", "name_location": "საირმის 82", "phone": "00995593197337", "type": "საჯარო ბაგა-ბაღი", "phone_1": "00995322384196" }, "geometry": { "type": "Point", "coordinates": [ 44.7584634060971, 41.722259724472799 ] } },
{ "type": "Feature", "properties": { "id": 17, "name": "ბაღი 7", "name_location": "სოფელი დიღომი", "phone": "00995322541263", "type": "საჯარო ბაგა-ბაღი" }, "geometry": { "type": "Point", "coordinates": [ 44.736571070687702, 41.7706329991858 ] } },
{ "type": "Feature", "properties": { "id": 18, "name": "ბაღი 199 ხუთკუნჭულა", "name_location": "დიდი დიღომი IV მ/რ", "phone": "00995322539485", "type": "საჯარო ბაგა-ბაღი" }, "geometry": { "type": "Point", "coordinates": [ 44.743544156233298, 41.794084370278796 ] } },
{ "type": "Feature", "properties": { "id": 19, "name": "ბაღი 134 სინათლე", "name_location": "მარშალ გელოვანის გამზირი 4 (ვაშლიჯვარი)", "phone": "00995322144456", "type": "საჯარო ბაგა-ბაღი", "phone_1": "00995599186904" }, "geometry": { "type": "Point", "coordinates": [ 44.767675085241635, 41.746430183621619 ] } },
{ "type": "Feature", "properties": { "id": 20, "name": "ბაღი 74", "name_location": "პეკინის 23", "phone": "00995593201602", "type": "საჯარო ბაგა-ბაღი" }, "geometry": { "type": "Point", "coordinates": [ 44.7722816, 41.7246644 ] } },
{ "type": "Feature", "properties": { "id": 21, "name": "ბაღი 33", "name_location": "ვაშლიჯვრის დასახლების მეორე ზონა", "phone": "00995599915220", "type": "საჯარო ბაგა-ბაღი" }, "geometry": { "type": "Point", "coordinates": [ 44.7620674, 41.7519172 ] } },
{ "type": "Feature", "properties": { "id": 22, "name": "ბაღი 73", "name_location": "დიდი დიღომი III მ/რ, 12 კორპ. მიმდებარედ", "phone": "00995599177800", "type": "საჯარო ბაგა-ბაღი" }, "geometry": { "type": "Point", "coordinates": [ 44.742921387450856, 41.789923595888588 ] } },
{ "type": "Feature", "properties": { "id": 23, "name": "ბაღი 8", "name_location": "ქართლელიშვილის 30", "phone": "00995322661842", "type": "საჯარო ბაგა-ბაღი" }, "geometry": { "type": "Point", "coordinates": [ 44.805006331163142, 41.731581368816023 ] } },
{ "type": "Feature", "properties": { "id": 24, "name": "ბაღი 9", "name_location": "გუდამაყრის 2", "phone": "00995322616515", "type": "საჯარო ბაგა-ბაღი" }, "geometry": { "type": "Point", "coordinates": [ 44.794021, 41.769059 ] } },
{ "type": "Feature", "properties": { "id": 25, "name": "ბაღი 22", "name_location": "თემქა X კვ", "phone": "00995322603289", "type": "საჯარო ბაგა-ბაღი" }, "geometry": { "type": "Point", "coordinates": [ 44.805728725311113, 41.779407672777033 ] } },
{ "type": "Feature", "properties": { "id": 26, "name": "ბაღი 31", "name_location": "ჩარგლის 40", "phone": "00995568863691", "type": "საჯარო ბაგა-ბაღი" }, "geometry": { "type": "Point", "coordinates": [ 44.794027141375793, 41.765620786048743 ] } },
{ "type": "Feature", "properties": { "id": 27, "name": "ბაღი 43", "name_location": "ხეხილსანერგე მეურნეობა", "phone": "00995322249919", "type": "საჯარო ბაგა-ბაღი" }, "geometry": { "type": "Point", "coordinates": [ 44.823808215152056, 41.736031166169752 ] } },
{ "type": "Feature", "properties": { "id": 28, "name": "ბაღი 46", "name_location": "ცოტნე დადიანის 34", "phone": "00995322663165", "type": "საჯარო ბაგა-ბაღი", "email": "bagabagi46@gmail.com", "registration_code": 200008188, "facebook_link": "https://www.facebook.com/p/%E1%83%A5%E1%83%97%E1%83%91%E1%83%98%E1%83%9A%E1%83%98%E1%83%A1%E1%83%98%E1%83%A1-46-%E1%83%94-%E1%83%A1%E1%83%90%E1%83%91%E1%83%90%E1%83%95%E1%83%A8%E1%83%95%E1%83%9D-%E1%83%91%E1%83%90%E1%83%92%E1%83%90-%E1%83%91%E1%83%90%E1%83%A6%E1%83%98-61557628595343/", "image": "https://scontent-cph2-1.xx.fbcdn.net/v/t39.30808-6/468919347_556878350534160_6207518809162410696_n.jpg?_nc_cat=100&ccb=1-7&_nc_sid=cc71e4&_nc_ohc=dDB-ivh3qBcQ7kNvwGmjJaD&_nc_oc=AdnEO_ZpkiGEbVjEKeWNqhJGgEwzmAtynpb-k03J8Gg40rjRiS_1aKsP4u0qsr0Aa1yk2rabJcxhOcgvrlZ2T4UD&_nc_zt=23&_nc_ht=scontent-cph2-1.xx&_nc_gid=isxZzDPRfrLCWSOBcjkxug&oh=00_Afcb4XlJVG7TLk6nA4QbqNAdcnHZDkLU8om7mMoMpy1CCg&oe=68F1D25E", "phone_1": null }, "geometry": { "type": "Point", "coordinates": [ 44.796003942554755, 41.73211855505668 ] } },
{ "type": "Feature", "properties": { "id": 29, "name": "ბაღი 56", "name_location": "გურამიშვილის გამზირი 4", "phone": "00995322180686", "type": "საჯარო ბაგა-ბაღი" }, "geometry": { "type": "Point", "coordinates": [ 44.789066902635696, 41.751432844842554 ] } },
{ "type": "Feature", "properties": { "id": 30, "name": "ბაღი 59", "name_location": "თემქა III მ/რ კვარტალი I", "phone": "00995322642881", "type": "საჯარო ბაგა-ბაღი" }, "geometry": { "type": "Point", "coordinates": [ 44.814065725095247, 41.7828379864536 ] } },
{ "type": "Feature", "properties": { "id": 31, "name": "ბაღი 60", "name_location": "თემქა XI მ/რ კვარტალი II", "phone": "00995322603904", "type": "საჯარო ბაგა-ბაღი" }, "geometry": { "type": "Point", "coordinates": [ 44.814322946916732, 41.776324551445519 ] } },
{ "type": "Feature", "properties": { "id": 32, "name": "ბაღი 61", "name_location": "თემქა XI მ/რ კვარტალი III", "phone": "00995322642890", "type": "საჯარო ბაგა-ბაღი" }, "geometry": { "type": "Point", "coordinates": [ 44.820203803188903, 41.773356669034548 ] } },
{ "type": "Feature", "properties": { "id": 33, "name": "ბაღი 62", "name_location": "რიონჰესის 35", "phone": "00995322664456", "type": "საჯარო ბაგა-ბაღი" }, "geometry": { "type": "Point", "coordinates": [ 44.796596730839752, 41.740802579202601 ] } },
{ "type": "Feature", "properties": { "id": 34, "name": "ბაღი 79", "name_location": "ეკლესიის ქუჩა 1", "phone": "00995322694586", "type": "საჯარო ბაგა-ბაღი" }, "geometry": { "type": "Point", "coordinates": [ 44.808941919658153, 41.732415267535046 ] } },
{ "type": "Feature", "properties": { "id": 35, "name": "ბაღი 80", "name_location": "თემქა III მ/რ კვარტალი II", "phone": "00995322643973", "type": "საჯარო ბაგა-ბაღი" }, "geometry": { "type": "Point", "coordinates": [ 44.820574391904003, 41.778067196892799 ] } },
{ "type": "Feature", "properties": { "id": 36, "name": "ბაღი 84", "name_location": "გურამიშვილის გამზირი 4", "phone": "00995322612905", "type": "საჯარო ბაგა-ბაღი" }, "geometry": { "type": "Point", "coordinates": [ 44.788753651238835, 41.751682098719307 ] } },
{ "type": "Feature", "properties": { "id": 37, "name": "ბაღი 143", "name_location": "ხორნაბუჯის 21", "phone": "00995322612395", "type": "საჯარო ბაგა-ბაღი" }, "geometry": { "type": "Point", "coordinates": [ 44.798380452314099, 41.7654047625659 ] } },
{ "type": "Feature", "properties": { "id": 38, "name": "ბაღი 21", "name_location": "ლიუბოვსკის 2 (ლოტკინი)", "phone": "00995322661540", "type": "საჯარო ბაგა-ბაღი", "email": "gelashvilimaka1975@gmail.com", "phone_1": "" }, "geometry": { "type": "Point", "coordinates": [ 44.803340559656128, 41.739065718337734 ] } },
{ "type": "Feature", "properties": { "id": 39, "name": "ბაღი 78", "name_location": "ტურბაზა, თბილისის ზღვა", "phone": "00995322601065", "type": "საჯარო ბაგა-ბაღი", "email": "bagiimedi@mail.ru", "phone_1": "" }, "geometry": { "type": "Point", "coordinates": [ 44.818686283505919, 41.749067861361638 ] } },
{ "type": "Feature", "properties": { "id": 40, "name": "ბაღი 25", "name_location": "მანჯგალაძის 19", "phone": "00995322962520", "type": "საჯარო ბაგა-ბაღი" }, "geometry": { "type": "Point", "coordinates": [ 44.80108, 41.727153 ] } },
{ "type": "Feature", "properties": { "id": 41, "name": "ბაღი 113", "name_location": "ურეკის ქუჩა 4", "phone": "00995577339898", "type": "საჯარო ბაგა-ბაღი" }, "geometry": { "type": "Point", "coordinates": [ 44.802409, 41.7796722 ] } },
{ "type": "Feature", "properties": { "id": 42, "name": "ბაღი 49", "name_location": "ხეხილსანერგე მეურნეობა", "phone": "00995551156293", "type": "საჯარო ბაგა-ბაღი" }, "geometry": { "type": "Point", "coordinates": [ 44.833109720536868, 41.736119683032172 ] } },
{ "type": "Feature", "properties": { "id": 43, "name": "ბაღი 114", "name_location": "ქეთევან წამებულის 1 (წყნეთი)", "phone": "00995322228203", "type": "საჯარო ბაგა-ბაღი", "registration_code": 204923725 }, "geometry": { "type": "Point", "coordinates": [ 44.707972248550099, 41.699023039285137 ] } },
{ "type": "Feature", "properties": { "id": 44, "name": "ბაღი 1", "name_location": "ფალიაშვილის 38 ა", "phone": "00995322223756", "type": "საჯარო ბაგა-ბაღი", "email": "bagabagipirveli@gmail.com", "registration_code": 204859778, "facebook_link": "https://www.facebook.com/N1bagi/" }, "geometry": { "type": "Point", "coordinates": [ 44.768603408415146, 41.707861304111148 ] } },
{ "type": "Feature", "properties": { "id": 45, "name": "ბაღი 27", "name_location": "შავიშვილის 5", "phone": "00995322300449", "type": "საჯარო ბაგა-ბაღი" }, "geometry": { "type": "Point", "coordinates": [ 44.723347726326899, 41.722165619968905 ] } },
{ "type": "Feature", "properties": { "id": 46, "name": "ბაღი 41", "name_location": "თოფურიას 10", "phone": "00995322316198", "type": "საჯარო ბაგა-ბაღი" }, "geometry": { "type": "Point", "coordinates": [ 44.7235948451114, 41.724581813138101 ] } },
{ "type": "Feature", "properties": { "id": 47, "name": "ბაღი 75", "name_location": "დარიალის 14", "phone": "00995322220232", "type": "საჯარო ბაგა-ბაღი" }, "geometry": { "type": "Point", "coordinates": [ 44.755400811275102, 41.708172841332697 ] } },
{ "type": "Feature", "properties": { "id": 48, "name": "ბაღი 83", "name_location": "ვაჟა-ფშაველას 49", "phone": "00995322392188", "type": "საჯარო ბაგა-ბაღი" }, "geometry": { "type": "Point", "coordinates": [ 44.738986174920996, 41.725655023659449 ] } },
{ "type": "Feature", "properties": { "id": 49, "name": "ბაღი 85", "name_location": "ვაჟა-ფშაველას 71", "phone": "00995322315022", "type": "საჯარო ბაგა-ბაღი" }, "geometry": { "type": "Point", "coordinates": [ 44.729766586742251, 41.725225536107502 ] } },
{ "type": "Feature", "properties": { "id": 50, "name": "ბაღი 137", "name_location": "აბაშიძის 13", "phone": "00995322292784", "type": "საჯარო ბაგა-ბაღი", "email": "137baga-bagi@gmail.com", "registration_code": 204859867, "facebook_link": "https://www.facebook.com/p/N137-ბაგა-ბაღი-100084378798459/", "image": "https://avatars.mds.yandex.net/get-altay/16333276/2a0000019722bd5420e6cd5d90c85be3aa62/XXXL" }, "geometry": { "type": "Point", "coordinates": [ 44.77195294483645, 41.707505244277044 ] } },
{ "type": "Feature", "properties": { "id": 51, "name": "ბაღი 142", "name_location": "ნუცუბიძე III მ/რ, II კვ", "phone": "00995322324111", "type": "საჯარო ბაგა-ბაღი" }, "geometry": { "type": "Point", "coordinates": [ 44.73360545576795, 41.730157218367395 ] } },
{ "type": "Feature", "properties": { "id": 52, "name": "ბაღი 192", "name_location": "ნუცუბიძე IV მ/რ", "phone": "00995322215735", "type": "საჯარო ბაგა-ბაღი" }, "geometry": { "type": "Point", "coordinates": [ 44.727997243238903, 41.734265421945352 ] } },
{ "type": "Feature", "properties": { "id": 53, "name": "ბაღი 195", "name_location": "სტუდქალაქი, კორპ.5, სართ. 1.  წყნეთის გზატკეცილი (ბაგები)", "phone": "00995322257543", "type": "საჯარო ბაგა-ბაღი" }, "geometry": { "type": "Point", "coordinates": [ 44.715073519081244, 41.71375249420565 ] } },
{ "type": "Feature", "properties": { "id": 54, "name": "ბაღი 201", "name_location": "ნუცუბიძე V მ/რ", "phone": "00995322217589", "type": "საჯარო ბაგა-ბაღი" }, "geometry": { "type": "Point", "coordinates": [ 44.7191900253029, 41.733986906587603 ] } },
{ "type": "Feature", "properties": { "id": 55, "name": "ბაღი 133 ჩიორა", "name_location": "მიშველაძის 2", "phone": "00995322225502", "type": "საჯარო ბაგა-ბაღი" }, "geometry": { "type": "Point", "coordinates": [ 44.753238194816404, 41.710390653720196 ] } },
{ "type": "Feature", "properties": { "id": 56, "name": "ბაღი 82", "name_location": "გელოვანის 4", "phone": "00995322324051", "type": "საჯარო ბაგა-ბაღი" }, "geometry": { "type": "Point", "coordinates": [ 44.730484725807699, 41.725295292837345 ] } },
{ "type": "Feature", "properties": { "id": 57, "name": "ბაღი 118", "name_location": "წყნეთი", "phone": "00995593786780", "type": "საჯარო ბაგა-ბაღი", "email": "", "registration_code": 405275312 }, "geometry": { "type": "Point", "coordinates": [ 44.689921833839776, 41.691945812254517 ] } },
{ "type": "Feature", "properties": { "id": 58, "name": "ბაღი 44", "name_location": "ნუცუბიძე IV მ/რ, 28ა კორპ. მიმდებარედ", "phone": "00995592474831", "type": "საჯარო ბაგა-ბაღი", "email": "", "registration_code": 405275321 }, "geometry": { "type": "Point", "coordinates": [ 44.72442118308993, 41.734664662232326 ] } },
{ "type": "Feature", "properties": { "id": 59, "name": "ბაღი 13", "name_location": "იპოლიტოვ-ივანოვის 25", "phone": "00995322623361", "type": "საჯარო ბაგა-ბაღი", "email": "mgulishvili@yahoo.com", "registration_code": 209472435, "phone_1": "" }, "geometry": { "type": "Point", "coordinates": [ 44.803365304994784, 41.795782147596462 ] } },
{ "type": "Feature", "properties": { "id": 60, "name": "ბაღი 14", "name_location": "იპოლიტოვ-ივანოვის 28", "phone": "00995322625725", "type": "საჯარო ბაგა-ბაღი", "email": "gognadze@yahoo.com", "registration_code": 200217791, "phone_1": "" }, "geometry": { "type": "Point", "coordinates": [ 44.799282082956374, 41.800385353125513 ] } },
{ "type": "Feature", "properties": { "id": 61, "name": "ბაღი 48", "name_location": "ჩიქვანიას 38", "phone": "00995322620039", "type": "საჯარო ბაგა-ბაღი" }, "geometry": { "type": "Point", "coordinates": [ 44.781602231340756, 41.824268854959897 ] } },
{ "type": "Feature", "properties": { "id": 62, "name": "ბაღი 50", "name_location": "შოთაძის 2", "phone": "00995322656771", "type": "საჯარო ბაგა-ბაღი", "email": "ugrelidze.nato@gmail.com", "registration_code": 209472578, "phone_1": "" }, "geometry": { "type": "Point", "coordinates": [ 44.761641507666099, 41.829837322884735 ] } },
{ "type": "Feature", "properties": { "id": 63, "name": "ბაღი 54", "name_location": "ლიბანის 10", "phone": "00995322628067", "type": "საჯარო ბაგა-ბაღი" }, "geometry": { "type": "Point", "coordinates": [ 44.795597234626754, 41.815932461881005 ] } },
{ "type": "Feature", "properties": { "id": 64, "name": "ბაღი 89", "name_location": "გლდანი ა მ/რ", "phone": "00995322623288", "type": "საჯარო ბაგა-ბაღი" }, "geometry": { "type": "Point", "coordinates": [ 44.811495062702249, 41.795813407686254 ] } },
{ "type": "Feature", "properties": { "id": 65, "name": "ბაღი 100", "name_location": "გლდანი III მ/რ, (დროებით ფუნქციონირებს 135-ე და 190-ე ბაგა-ბაღებში)", "phone": "00995599978979", "type": "საჯარო ბაგა-ბაღი" }, "geometry": { "type": "Point", "coordinates": [ 44.823556902765944, 41.796372980831549 ] } },
{ "type": "Feature", "properties": { "id": 66, "name": "ბაღი 107", "name_location": "გლდანი VI მ/რ", "phone": "00995322677722", "type": "საჯარო ბაგა-ბაღი" }, "geometry": { "type": "Point", "coordinates": [ 44.823352911230202, 41.803054029897652 ] } },
{ "type": "Feature", "properties": { "id": 67, "name": "ბაღი 123", "name_location": "გლდანი VII მ/რ", "phone": "00995322671489", "type": "საჯარო ბაგა-ბაღი" }, "geometry": { "type": "Point", "coordinates": [ 44.836995368635698, 41.805120296381553 ] } },
{ "type": "Feature", "properties": { "id": 68, "name": "ბაღი 135", "name_location": "გლდანი V მ/რ", "phone": "00995322676535", "type": "საჯარო ბაგა-ბაღი" }, "geometry": { "type": "Point", "coordinates": [ 44.828646854501201, 41.800156897858898 ] } },
{ "type": "Feature", "properties": { "id": 69, "name": "ბაღი 151", "name_location": "მუხიანი III მ/რ", "phone": "00995322635047", "type": "საჯარო ბაგა-ბაღი" }, "geometry": { "type": "Point", "coordinates": [ 44.83001888571075, 41.786584611946353 ] } },
{ "type": "Feature", "properties": { "id": 70, "name": "ბაღი 153", "name_location": "მუხიანი IVა მ/რ", "phone": "00995322630095", "type": "საჯარო ბაგა-ბაღი", "email": "153bagabagi@gmail.com", "registration_code": 209472462, "facebook_link": "https://www.facebook.com/p/153-ე-ბაგა-ბაღი-100057417790388/", "image": "https://scontent-cph2-1.xx.fbcdn.net/v/t39.30808-6/547884343_1255912276332687_4359279220988675150_n.jpg?stp=cp6_dst-jpg_tt6&_nc_cat=104&ccb=1-7&_nc_sid=6ee11a&_nc_ohc=jNP53dmgsAAQ7kNvwFXwnzD&_nc_oc=AdmG46D7dH1KNpOerudHJyXaklNznMIsujaAnDZFBJpwmquwX-Yrv6pz7owqcAP8kf8tqYGN4kFhsFuoJ8ym4nx3&_nc_zt=23&_nc_ht=scontent-cph2-1.xx&_nc_gid=tRr4ClZO36gGcwuqxiITQA&oh=00_AfieBo6m4hI-PXDBUNvRt3JqIqDpuQFQgcWsN3pyZj7BlQ&oe=690D0AF8" }, "geometry": { "type": "Point", "coordinates": [ 44.828654474862745, 41.783351908398899 ] } },
{ "type": "Feature", "properties": { "id": 71, "name": "ბაღი 173", "name_location": "მუხიანი IV, რმ/რ", "phone": "00995322635198", "type": "საჯარო ბაგა-ბაღი" }, "geometry": { "type": "Point", "coordinates": [ 44.837306967013902, 41.784955021827656 ] } },
{ "type": "Feature", "properties": { "id": 72, "name": "ბაღი 184", "name_location": "მუხიანი I მ/რ ნონეშვილის ქუჩა", "phone": "00995322636710", "type": "საჯარო ბაგა-ბაღი", "email": "tinatinkakhadze184@gmail.com", "facebook_link": "https://www.facebook.com/p/184-%E1%83%94-%E1%83%91%E1%83%90%E1%83%92%E1%83%90-%E1%83%91%E1%83%90%E1%83%A6%E1%83%98-100057396222516/" }, "geometry": { "type": "Point", "coordinates": [ 44.824235328258212, 41.789427194078606 ] } },
{ "type": "Feature", "properties": { "id": 73, "name": "ბაღი 185", "name_location": "გლდანულა", "phone": "00995322670566", "type": "საჯარო ბაგა-ბაღი" }, "geometry": { "type": "Point", "coordinates": [ 44.817251306154702, 41.811213340359103 ] } },
{ "type": "Feature", "properties": { "id": 74, "name": "ბაღი 190", "name_location": "გლდანი III მ/რ", "phone": "00995322683129", "type": "საჯარო ბაგა-ბაღი" }, "geometry": { "type": "Point", "coordinates": [ 44.828810935087652, 41.798053382147401 ] } },
{ "type": "Feature", "properties": { "id": 75, "name": "ბაღი 205", "name_location": "გლდანი V მ/რ", "phone": "00995322688427", "type": "საჯარო ბაგა-ბაღი" }, "geometry": { "type": "Point", "coordinates": [ 44.830957066868798, 41.801966212515154 ] } },
{ "type": "Feature", "properties": { "id": 76, "name": "ბაღი 216", "name_location": "გლდანი IV მ/რ", "phone": "00995322670768", "type": "საჯარო ბაგა-ბაღი", "registration_code": 833230483, "phone_1": "00995599182189" }, "geometry": { "type": "Point", "coordinates": [ 44.820590656232852, 41.801360786730754 ] } },
{ "type": "Feature", "properties": { "id": 77, "name": "ბაღი 106 ზაჰესი", "name_location": "კასკადის 39", "phone": "00995322656104", "type": "საჯარო ბაგა-ბაღი" }, "geometry": { "type": "Point", "coordinates": [ 44.759314849052146, 41.82404844546965 ] } },
{ "type": "Feature", "properties": { "id": 78, "name": "ბაღი 105 აისი", "name_location": "გმირ კურსანტთა 21", "phone": "00995322575869", "type": "საჯარო ბაგა-ბაღი", "email": "gasvianinona@yahoo.com", "facebook_link": "https://www.facebook.com/p/105-%E1%83%94-%E1%83%A1%E1%83%90%E1%83%91%E1%83%90%E1%83%95%E1%83%A8%E1%83%95%E1%83%9D-%E1%83%91%E1%83%90%E1%83%A6%E1%83%98-%E1%83%90%E1%83%98%E1%83%A1%E1%83%98-100089235516527/" }, "geometry": { "type": "Point", "coordinates": [ 44.803311142050042, 41.800166503134975 ] } },
{ "type": "Feature", "properties": { "id": 79, "name": "ბაღი 186", "name_location": "გლდანულა", "phone": "00995322677985", "type": "საჯარო ბაგა-ბაღი" }, "geometry": { "type": "Point", "coordinates": [ 44.817079921083398, 41.814208136767604 ] } },
{ "type": "Feature", "properties": { "id": 80, "name": "ბაღი 103", "name_location": "გლდანის VIII მ/რ", "phone": "00995322675290", "type": "საჯარო ბაგა-ბაღი" }, "geometry": { "type": "Point", "coordinates": [ 44.828574393757251, 41.805450333423394 ] } },
{ "type": "Feature", "properties": { "id": 81, "name": "ბაღი 35", "name_location": "გლდანი I მ/რ, ანგია ბოჭორიშვილის 20ა", "phone": "00995322484433", "type": "საჯარო ბაგა-ბაღი", "email": "35bagabagi@gmail.com", "registration_code": 400171256, "facebook_link": "https://www.facebook.com/p/%E1%83%A5%E1%83%97%E1%83%91%E1%83%98%E1%83%9A%E1%83%98%E1%83%A1%E1%83%98%E1%83%A1-35-%E1%83%94-%E1%83%91%E1%83%90%E1%83%92%E1%83%90-%E1%83%91%E1%83%90%E1%83%A6%E1%83%98-61556095364697/" }, "geometry": { "type": "Point", "coordinates": [ 44.824527088696236, 41.792887099587269 ] } },
{ "type": "Feature", "properties": { "id": 82, "name": "ბაღი 101", "name_location": "გლდანი VI მ/რ, მე-7 კორპუსის მიმდებარედ", "phone": "00995322671012", "type": "საჯარო ბაგა-ბაღი", "email": "101bagabaghi@gmail.com", "registration_code": 400269035, "phone_1": "" }, "geometry": { "type": "Point", "coordinates": [ 44.822698807987955, 41.80463608206361 ] } },
{ "type": "Feature", "properties": { "id": 83, "name": "ბაღი 104", "name_location": "მუხიანი I მ/რ მე-12 კორპუსის მიმდებარედ", "phone": "00995592034806", "type": "საჯარო ბაგა-ბაღი", "email": "104bagabagi@gmail.com", "registration_code": 400306450, "facebook_link": "https://www.facebook.com/p/104-%E1%83%94-%E1%83%A1%E1%83%90%E1%83%91%E1%83%90%E1%83%95%E1%83%A8%E1%83%95%E1%83%9D-%E1%83%91%E1%83%90%E1%83%92%E1%83%90-%E1%83%91%E1%83%90%E1%83%A6%E1%83%98-100075886345111/" }, "geometry": { "type": "Point", "coordinates": [ 44.825250139344384, 41.789450732994709 ] } },
{ "type": "Feature", "properties": { "id": 84, "name": "ბაღი 57", "name_location": "გლდანი III მ/რ, მე-12 კორპუსის მიმდებარედ", "phone": "00995322970057", "type": "საჯარო ბაგა-ბაღი", "image": "https://scontent-cph2-1.xx.fbcdn.net/v/t1.6435-9/37008598_2142602975961987_1333115908322754560_n.jpg?_nc_cat=100&ccb=1-7&_nc_sid=cf85f3&_nc_ohc=SagD384XKjoQ7kNvwGWkLzS&_nc_oc=Adk0Rm6aNPWZoVXQLwudp2Vcc2S7va6ketMXpQyl1iGWr0QBni9nbLi0EnYDFrVTT59ILGZgB-fro_5H9SVyhPgb&_nc_zt=23&_nc_ht=scontent-cph2-1.xx&_nc_gid=MNQdTKdagNTx0Vwm6111CA&oh=00_Afdrik05kwJ9Gvlqggi6CJxZ1rMfdZdEfAQLw-_86j-IRA&oe=69135706" }, "geometry": { "type": "Point", "coordinates": [ 44.833859967611986, 41.797910093985585 ] } },
{ "type": "Feature", "properties": { "id": 85, "name": "ბაღი 53", "name_location": "მრევლიშვილის 6", "phone": "00995593022999", "type": "საჯარო ბაგა-ბაღი", "email": "ana.koblianidze53@yahoo.com", "registration_code": 400240084, "facebook_link": "https://www.facebook.com/p/%E1%83%97%E1%83%91%E1%83%98%E1%83%9A%E1%83%98%E1%83%A1%E1%83%98%E1%83%A1-N-53-%E1%83%A1%E1%83%90%E1%83%91%E1%83%90%E1%83%95%E1%83%A8%E1%83%95%E1%83%9D-%E1%83%91%E1%83%90%E1%83%92%E1%83%90-%E1%83%91%E1%83%90%E1%83%A6%E1%83%98-61556550693943/", "image": "https://scontent-cph2-1.xx.fbcdn.net/v/t39.30808-6/469505450_122191924964218356_6529453301308311800_n.jpg?_nc_cat=106&ccb=1-7&_nc_sid=a5f93a&_nc_ohc=_TCTSPKG7RcQ7kNvwG82eNL&_nc_oc=AdkB-Jj_co5KodRehS1TacybR5cJQNg5Ki8IJpOpyWmHhSAgEGkf5xkYkLOtSgZx2fLnP6VHmCMu2GFazZXurrad&_nc_zt=23&_nc_ht=scontent-cph2-1.xx&_nc_gid=SlOS6AWnWU5hlggovIQnUA&oh=00_AfdAE-hlyCfp4f6fFnG0e4oKAlTpVvAuG9G224VPpR_OEQ&oe=68F1CFCB", "phone_1": null }, "geometry": { "type": "Point", "coordinates": [ 44.808433025005975, 41.81271868950823 ] } },
{ "type": "Feature", "properties": { "id": 86, "name": "ბაღი 102", "name_location": "გლდანი VIII მ/რ", "phone": "00995551211415", "type": "საჯარო ბაგა-ბაღი", "email": "102bagabagi@gmail.com", "registration_code": 400269017, "facebook_link": "https://www.facebook.com/p/%E1%83%97%E1%83%91%E1%83%98%E1%83%9A%E1%83%98%E1%83%A1%E1%83%98%E1%83%A1-N102-%E1%83%A1%E1%83%90%E1%83%91%E1%83%90%E1%83%95%E1%83%A8%E1%83%95%E1%83%9D-%E1%83%91%E1%83%90%E1%83%92%E1%83%90-%E1%83%91%E1%83%90%E1%83%A6%E1%83%98-100083039735446/", "image": "https://scontent-cph2-1.xx.fbcdn.net/v/t39.30808-6/474595467_1139687894468902_3383353229645387672_n.jpg?_nc_cat=104&ccb=1-7&_nc_sid=cc71e4&_nc_ohc=5VKoih2SovEQ7kNvwFiy6OB&_nc_oc=Adn9c3skDYYfBs8AOHdxXOpqSfVlKOhiRmilmrHhIi6wxRWJ0wOpf7LR42Laot0q5gr8QLKqIIzv1jyE6G2asQ2d&_nc_zt=23&_nc_ht=scontent-cph2-1.xx&_nc_gid=KCa3kKnewGVsJvs74v9PbQ&oh=00_Aff0tkl4GqSiVMThU7JIUVTz81MQeBbuxnPMtKUCkQAFBQ&oe=68F1A158" }, "geometry": { "type": "Point", "coordinates": [ 44.826641875103221, 41.80756126462331 ] } },
{ "type": "Feature", "properties": { "id": 87, "name": "ბაღი 66", "name_location": "გუთნის 1, ჩიხი 8", "phone": "00995322748276", "type": "საჯარო ბაგა-ბაღი" }, "geometry": { "type": "Point", "coordinates": [ 44.82202923824655, 41.689049259765902 ] } },
{ "type": "Feature", "properties": { "id": 88, "name": "ბაღი 77", "name_location": "იზაშვილის 5", "phone": "00995322747456", "type": "საჯარო ბაგა-ბაღი" }, "geometry": { "type": "Point", "coordinates": [ 44.819434312145546, 41.6904664193599 ] } },
{ "type": "Feature", "properties": { "id": 89, "name": "ბაღი 26", "name_location": "ბეთანიიის 15", "phone": "00995322747814", "type": "საჯარო ბაგა-ბაღი" }, "geometry": { "type": "Point", "coordinates": [ 44.820879322900353, 41.701579025387304 ] } },
{ "type": "Feature", "properties": { "id": 90, "name": "ბაღი 18", "name_location": "წინანდლის 12", "phone": "00995322748465", "type": "საჯარო ბაგა-ბაღი" }, "geometry": { "type": "Point", "coordinates": [ 44.827259008112101, 41.689284166925106 ] } },
{ "type": "Feature", "properties": { "id": 91, "name": "ბაღი 29", "name_location": "პატარძეულის 1", "phone": "00995322748334", "type": "საჯარო ბაგა-ბაღი" }, "geometry": { "type": "Point", "coordinates": [ 44.833941050957904, 41.686350871481849 ] } },
{ "type": "Feature", "properties": { "id": 92, "name": "ბაღი 47", "name_location": "ვაზისუბნის დასახლება, 1-ლი კორპუსის მიმდებარე, (დროებით ფუნქციონირებს 182-ე ბაგა-ბაღში)", "phone": "00995599114414", "type": "საჯარო ბაგა-ბაღი" }, "geometry": { "type": "Point", "coordinates": [ 44.862566732090798, 41.695502972882252 ] } },
{ "type": "Feature", "properties": { "id": 93, "name": "ბაღი 109", "name_location": "ბერი გაბრიელ სალოსის გამზირი 110", "phone": "00995592821127", "type": "საჯარო ბაგა-ბაღი" }, "geometry": { "type": "Point", "coordinates": [ 44.858424921464049, 41.674300329155251 ] } },
{ "type": "Feature", "properties": { "id": 94, "name": "ბაღი 121", "name_location": "ვაზისუბანი I მ/რ", "phone": "00995322781105", "type": "საჯარო ბაგა-ბაღი" }, "geometry": { "type": "Point", "coordinates": [ 44.846803206552849, 41.702512386924653 ] } },
{ "type": "Feature", "properties": { "id": 95, "name": "ბაღი 136", "name_location": "ვაზისუბანი II მ/რ", "phone": "00995322783551", "type": "საჯარო ბაგა-ბაღი" }, "geometry": { "type": "Point", "coordinates": [ 44.844055999679853, 41.706472144770203 ] } },
{ "type": "Feature", "properties": { "id": 96, "name": "ბაღი 156", "name_location": "ვაზისუბანი IV მ/რ, Iკვ.", "phone": "00995322781916", "type": "საჯარო ბაგა-ბაღი" }, "geometry": { "type": "Point", "coordinates": [ 44.850486623698103, 41.703302099848898 ] } },
{ "type": "Feature", "properties": { "id": 97, "name": "ბაღი 167", "name_location": "ვაზისუბანი IV მ/რ, IIკვ", "phone": "00995322781943", "type": "საჯარო ბაგა-ბაღი" }, "geometry": { "type": "Point", "coordinates": [ 44.855659260646448, 41.70489488293655 ] } },
{ "type": "Feature", "properties": { "id": 98, "name": "ბაღი 202", "name_location": "ტვიშის 2 (მეტრომშენის დასახლება)", "phone": "00995322788456", "type": "საჯარო ბაგა-ბაღი" }, "geometry": { "type": "Point", "coordinates": [ 44.844696296679345, 41.696224845921904 ] } },
{ "type": "Feature", "properties": { "id": 99, "name": "ბაღი 215", "name_location": "ბერი გაბრიელ სალოსის გამზირი 7", "phone": "00995322749065", "type": "საჯარო ბაგა-ბაღი" }, "geometry": { "type": "Point", "coordinates": [ 44.81883, 41.821148 ] } },
{ "type": "Feature", "properties": { "id": 100, "name": "ბაღი 17", "name_location": "ყვარლის ჩიხი 200 (მეტრომშენის დასახლება)", "phone": "00995322788400", "type": "საჯარო ბაგა-ბაღი" }, "geometry": { "type": "Point", "coordinates": [ 44.841542978799396, 41.695683163783698 ] } },
{ "type": "Feature", "properties": { "id": 101, "name": "ბაღი 182", "name_location": "ვაზისუბანი 1 კორპუსის მიმდებარედ", "phone": "00995322783483", "type": "საჯარო ბაგა-ბაღი" }, "geometry": { "type": "Point", "coordinates": [ 44.829495, 41.808007 ] } },
{ "type": "Feature", "properties": { "id": 102, "name": "ბაღი 37", "name_location": "ონაშვილის 1 (ზედა სამგორი)", "phone": "00995555153553", "type": "საჯარო ბაგა-ბაღი", "facebook_link": "https://www.facebook.com/2024bagi/", "image": "https://scontent-cph2-1.xx.fbcdn.net/v/t39.30808-6/305763746_424796629638616_5674686275145882494_n.jpg?_nc_cat=104&ccb=1-7&_nc_sid=6ee11a&_nc_ohc=BVxI44Wx7pAQ7kNvwFLraOn&_nc_oc=AdkYKNW0qFz_gktg6B_r6DIDbUXLm9yc8JnpaXg-PDq1HunU6OtLEfVE1DKSoiMfKE3TsF6QlyMjsi9q-APECSxY&_nc_zt=23&_nc_ht=scontent-cph2-1.xx&_nc_gid=n1yiLWycGoiTZmcjwu-bHA&oh=00_AffKO1ZXn-qpc3VPNDh5rxfQwqI9705aeyHQKfwefqRhRg&oe=68F306EE" }, "geometry": { "type": "Point", "coordinates": [ 44.860463287612838, 41.688881373936859 ] } },
{ "type": "Feature", "properties": { "id": 103, "name": "ბაღი 30", "name_location": "ნავთლუღის 8", "phone": "00995599772828", "type": "საჯარო ბაგა-ბაღი", "email": "", "registration_code": 406283800 }, "geometry": { "type": "Point", "coordinates": [ 44.840835878334836, 41.683998087746239 ] } },
{ "type": "Feature", "properties": { "id": 104, "name": "ბაღი 124", "name_location": "აშოტ კურაპალატის ქუჩა", "phone": "00995574889855", "type": "საჯარო ბაგა-ბაღი", "email": "nuki.124bagi@gmail.com", "registration_code": 406456473, "facebook_link": "https://www.facebook.com/p/124-ე-საბავშვო-ბაღი-61571026481223/", "image": "https://scontent-cph2-1.xx.fbcdn.net/v/t39.30808-6/487605292_1073967191442394_8566263226084144544_n.jpg?_nc_cat=111&ccb=1-7&_nc_sid=127cfc&_nc_ohc=thX2HKXDoOAQ7kNvwH8VC8A&_nc_oc=AdmPV-9hc452-w8N7iU1vRh8AvyAbAjZBB-kotqBOECn1lQX6sMSwN73Y5inVt2xhtWjUG6Qb16BM0VarBLhR1QT&_nc_zt=23&_nc_ht=scontent-cph2-1.xx&_nc_gid=bL09OHX5JRlz-K3qDFnbdg&oh=00_Affp6Hznokco4Wz8g0gDD65zOGH1lGi0jjRLOZyloOMMKg&oe=6901990B", "phone_1": "" }, "geometry": { "type": "Point", "coordinates": [ 44.847988277813471, 41.709917019711803 ] } },
{ "type": "Feature", "properties": { "id": 105, "name": "ბაღი 88", "name_location": "საინგილოს 80", "phone": "00995322222188", "type": "საჯარო ბაგა-ბაღი", "email": "88bagabagi@gmail.com", "registration_code": 406335693, "phone_1": "" }, "geometry": { "type": "Point", "coordinates": [ 44.825080825954608, 41.697596332537607 ] } },
{ "type": "Feature", "properties": { "id": 106, "name": "ბაღი 64", "name_location": "ჭიჭინაძის ქუჩა", "phone": "00995322941273", "type": "საჯარო ბაგა-ბაღი", "email": "64kindergarten@gmail.com", "registration_code": 406446305, "facebook_link": "https://www.facebook.com/p/ქ-თბილისის-N64-ე-საბავშვო-ბაგა-ბაღი-61556102957535/", "image": "https://scontent-cph2-1.xx.fbcdn.net/v/t39.30808-6/424608304_122115754952203431_4370554502560078773_n.jpg?_nc_cat=101&ccb=1-7&_nc_sid=6ee11a&_nc_ohc=3Y3jTLTg2a0Q7kNvwGDgBR4&_nc_oc=AdkcKA5xZMW_tJ_FuLmyote8d_6aFxhTocK8Dk32oOf4Emy1Y6dtjyiiMHz7itCQE27u6zsQmwo2pYMItU5G3ZWJ&_nc_zt=23&_nc_ht=scontent-cph2-1.xx&_nc_gid=p6u7pvnJ7--ATH7Azvt94g&oh=00_Afe9_0sXOgpiTYv-A8Xb3dMWbn38wPGlOakucWySv-aDdA&oe=6906CC00" }, "geometry": { "type": "Point", "coordinates": [ 44.921579607047647, 41.665484118223453 ] } },
{ "type": "Feature", "properties": { "id": 107, "name": "ბაღი 16", "name_location": "ხმელნიცკის 181", "phone": "00995322714333", "type": "საჯარო ბაგა-ბაღი" }, "geometry": { "type": "Point", "coordinates": [ 44.8796223552161, 41.670040201424101 ] } },
{ "type": "Feature", "properties": { "id": 108, "name": "ბაღი 28", "name_location": "საცხენისის ქუჩა,  ვარკეთილი ზემო პლატო II მ/რ; Iკვ. (დროებით ფუნქციონირებს 176-ე ბაგა-ბაღში)", "phone": "00995514113003", "type": "საჯარო ბაგა-ბაღი" }, "geometry": { "type": "Point", "coordinates": [ 44.886015611707904, 41.685690898745698 ] } },
{ "type": "Feature", "properties": { "id": 109, "name": "ბაღი 45", "name_location": "ჯავახეთის 8ა", "phone": "00995322278555", "type": "საჯარო ბაგა-ბაღი" }, "geometry": { "type": "Point", "coordinates": [ 44.8693494974559, 41.693374485981401 ] } },
{ "type": "Feature", "properties": { "id": 110, "name": "ბაღი 65", "name_location": "ბაბუციძის 5", "phone": "00995322705508", "type": "საჯარო ბაგა-ბაღი" }, "geometry": { "type": "Point", "coordinates": [ 44.891753641348146, 41.668228530148198 ] } },
{ "type": "Feature", "properties": { "id": 111, "name": "ბაღი 72", "name_location": "ჭიჭინაძის 25", "phone": "00995322401685", "type": "საჯარო ბაგა-ბაღი" }, "geometry": { "type": "Point", "coordinates": [ 44.914700578955504, 41.674835325583544 ] } },
{ "type": "Feature", "properties": { "id": 112, "name": "ბაღი 76", "name_location": "ახვლედიანის 14 (ორხევი)", "phone": "00995322768742", "type": "საჯარო ბაგა-ბაღი", "email": "76bbaginatogabisiani@mail.ru", "registration_code": 208145728, "facebook_link": "https://www.facebook.com/p/76-ე-საბავშვო-ბაგა-ბაღი-61556604253649/", "image": "https://tmlaboratory.ge/wp-content/uploads/2024/09/DSC_0069-scaled.jpg" }, "geometry": { "type": "Point", "coordinates": [ 44.924929590256795, 41.694168671932147 ] } },
{ "type": "Feature", "properties": { "id": 113, "name": "ბაღი 86", "name_location": "მოსკოვის გამზირი 33", "phone": "00995322702143", "type": "საჯარო ბაგა-ბაღი" }, "geometry": { "type": "Point", "coordinates": [ 44.877994143951653, 41.6743549603368 ] } },
{ "type": "Feature", "properties": { "id": 114, "name": "ბაღი 111", "name_location": "ლილოს დასახლება", "phone": "00995322740873", "type": "საჯარო ბაგა-ბაღი" }, "geometry": { "type": "Point", "coordinates": [ 44.97904636213655, 41.679625438714851 ] } },
{ "type": "Feature", "properties": { "id": 115, "name": "ბაღი 115", "name_location": "თრიალეთის ქუჩა", "phone": "00995322730502", "type": "საჯარო ბაგა-ბაღი" }, "geometry": { "type": "Point", "coordinates": [ 44.8785732341074, 41.692468660325247 ] } },
{ "type": "Feature", "properties": { "id": 116, "name": "ბაღი 126", "name_location": "ქინძმარაულის მე-2 შეს.", "phone": "00995322706761", "type": "საჯარო ბაგა-ბაღი" }, "geometry": { "type": "Point", "coordinates": [ 44.892988576213298, 41.665305732153797 ] } },
{ "type": "Feature", "properties": { "id": 117, "name": "ბაღი 160", "name_location": "ვარკეთილი ზემო პლატო II მ/რ", "phone": "00995322767720", "type": "საჯარო ბაგა-ბაღი", "email": "160baga.bagi@gmail.com", "registration_code": 208176748, "facebook_link": "https://www.facebook.com/p/%E1%83%A5%E1%83%97%E1%83%91%E1%83%98%E1%83%9A%E1%83%98%E1%83%A1%E1%83%98%E1%83%A1-160-%E1%83%94-%E1%83%A1%E1%83%90%E1%83%91%E1%83%90%E1%83%95%E1%83%A8%E1%83%95%E1%83%9D-%E1%83%91%E1%83%90%E1%83%92%E1%83%90-%E1%83%91%E1%83%90%E1%83%A6%E1%83%98-100057377204369/", "image": "https://scontent-cph2-1.xx.fbcdn.net/v/t1.6435-9/30127231_1649125801820267_7831597664226508800_n.jpg?_nc_cat=108&ccb=1-7&_nc_sid=127cfc&_nc_ohc=LDgmseOcLigQ7kNvwEkmzft&_nc_oc=AdlF0CUxcmEmDY9NRuIrJhDuJzPk_nscnwCTW8uJy_ygYLD7bcGTks3vEquNkktcDg706w1nkJskCxb280r6L6rI&_nc_zt=23&_nc_ht=scontent-cph2-1.xx&_nc_gid=HlkqyaOhm9URf4SbrXERGg&oh=00_Afd9iwMmjlHJ0ZzDBQXfFEdz31TTEt0WHOeYjss71z4BDw&oe=69134017" }, "geometry": { "type": "Point", "coordinates": [ 44.877702893173861, 41.697223604505702 ] } },
{ "type": "Feature", "properties": { "id": 118, "name": "ბაღი 163", "name_location": "ვარკეთილი IV მ/რ II რიგი", "phone": "00995322762407", "type": "საჯარო ბაგა-ბაღი" }, "geometry": { "type": "Point", "coordinates": [ 44.865558226195347, 41.695728229402945 ] } },
{ "type": "Feature", "properties": { "id": 119, "name": "ბაღი 166", "name_location": "ვარკეთილი 3 II მ/რ", "phone": "00995322794690", "type": "საჯარო ბაგა-ბაღი" }, "geometry": { "type": "Point", "coordinates": [ 44.882926205746898, 41.701210779965152 ] } },
{ "type": "Feature", "properties": { "id": 120, "name": "ბაღი 169", "name_location": "ვარკეთილი 3 I მ/რ", "phone": "00995322794955", "type": "საჯარო ბაგა-ბაღი" }, "geometry": { "type": "Point", "coordinates": [ 44.874291633166202, 41.701112811280893 ] } },
{ "type": "Feature", "properties": { "id": 121, "name": "ბაღი 176", "name_location": "ვარკეთილი ზემო პლატო II მ/რ (დროებით ფუნქციონირებს 163-ე და 169-ე ბაგა-ბაღებში)", "phone": "00995599870149", "type": "საჯარო ბაგა-ბაღი" }, "geometry": { "type": "Point", "coordinates": [ 44.874073613149399, 41.697518774757754 ] } },
{ "type": "Feature", "properties": { "id": 122, "name": "ბაღი 181", "name_location": "დევალის 5, ვარკეთილი 3", "phone": "00995322795734", "type": "საჯარო ბაგა-ბაღი", "phone_1": "00995322142107" }, "geometry": { "type": "Point", "coordinates": [ 44.877806843017154, 41.703962830834655 ] } },
{ "type": "Feature", "properties": { "id": 123, "name": "ბაღი 196", "name_location": "სესილია თაყაიშვილის 22", "phone": "00995322795429", "type": "საჯარო ბაგა-ბაღი" }, "geometry": { "type": "Point", "coordinates": [ 44.879921313017952, 41.709500971893945 ] } },
{ "type": "Feature", "properties": { "id": 124, "name": "ბაღი 210", "name_location": "საცხენისის ქუჩა, ვარკეთილი 3, I კვ.", "phone": "00995322769344", "type": "საჯარო ბაგა-ბაღი" }, "geometry": { "type": "Point", "coordinates": [ 44.88122395652865, 41.685633785520551 ] } },
{ "type": "Feature", "properties": { "id": 125, "name": "ბაღი 120", "name_location": "მშვიდობის 1 (დიდი ლილო)", "phone": "00995790128116", "type": "საჯარო ბაგა-ბაღი" }, "geometry": { "type": "Point", "coordinates": [ 44.962904981065201, 41.739779857600794 ] } },
{ "type": "Feature", "properties": { "id": 126, "name": "ბაღი 161", "name_location": "ნაძვების 4 (ნასაბურის დასახლება)", "phone": "00995322726974", "type": "საჯარო ბაგა-ბაღი" }, "geometry": { "type": "Point", "coordinates": [ 44.997380814879548, 41.71268387727595 ] } },
{ "type": "Feature", "properties": { "id": 127, "name": "ბაღი 110", "name_location": "პატარა ლილო", "phone": "00995322479409", "type": "საჯარო ბაგა-ბაღი" }, "geometry": { "type": "Point", "coordinates": [ 44.906364914338056, 41.7445146002038 ] } },
{ "type": "Feature", "properties": { "id": 128, "name": "ბაღი 130", "name_location": "რუსთაველის 5 (ვარკეთილის დასახლება)", "phone": "00995322738388", "type": "საჯარო ბაგა-ბაღი" }, "geometry": { "type": "Point", "coordinates": [ 44.898845339439951, 41.710477238383049 ] } },
{ "type": "Feature", "properties": { "id": 129, "name": "ბაღი 127 თოლია", "name_location": "ვაზიანის სამხედრო დასახლება, კორპ. 17ბ", "phone": "00995322184669", "type": "საჯარო ბაგა-ბაღი", "email": " bagabagitolia@mail.ru", "registration_code": 206333500 }, "geometry": { "type": "Point", "coordinates": [ 45.07990870053446, 41.663058469365353 ] } },
{ "type": "Feature", "properties": { "id": 130, "name": "ბაღი 128", "name_location": "მოსკოვის გამზირი V კვ", "phone": "00995322200128", "type": "საჯარო ბაგა-ბაღი" }, "geometry": { "type": "Point", "coordinates": [ 44.855812, 41.684495 ] } },
{ "type": "Feature", "properties": { "id": 131, "name": "ბაღი 12", "name_location": "აეროპორტის დასახლება, ნაკვეთი 09/066", "phone": "00995595602279", "type": "საჯარო ბაგა-ბაღი", "email": "12bagabagi@gmail.com", "registration_code": 406113316, "facebook_link": "https://www.facebook.com/p/თბილისის-მე-12-საბავშვო-ბაგა-ბაღი-61556962400749/", "image": "https://scontent-cph2-1.xx.fbcdn.net/v/t39.30808-6/467664309_122186654324232080_6781162073330958788_n.jpg?_nc_cat=105&ccb=1-7&_nc_sid=cc71e4&_nc_ohc=0U4KF3SbqusQ7kNvwEcI5q7&_nc_oc=AdmMfIwA2Guf7j3vol9aUJaI-j1ffPLNcRNars11EtAdETrxOeGBfF-USQV4udmxOxrxtg8DKPP_CB0bJ1kW81hd&_nc_zt=23&_nc_ht=scontent-cph2-1.xx&_nc_gid=721jo-tYci9DHlIELEnIZw&oh=00_AfccK938vJNnwd6HpHYiXD-r1gXpq9V1TMCn8M-8Z0YLLA&oe=690197AA" }, "geometry": { "type": "Point", "coordinates": [ 44.950801005701152, 41.685650048544602 ] } },
{ "type": "Feature", "properties": { "id": 132, "name": "ბაღი 116", "name_location": "საქნავთობის დასახლება", "phone": "00995322407231", "type": "საჯარო ბაგა-ბაღი" }, "geometry": { "type": "Point", "coordinates": [ 44.981799176795548, 41.690822025252203 ] } },
{ "type": "Feature", "properties": { "id": 133, "name": "ბაღი 129", "name_location": "სოფელი წინუბანი", "phone": "00995592891919", "type": "საჯარო ბაგა-ბაღი" }, "geometry": { "type": "Point", "coordinates": [ 45.0118577, 41.7007911 ] } },
{ "type": "Feature", "properties": { "id": 134, "name": "ბაღი 164", "name_location": "ვარკეთილი ზემო პლატო, III მასივი 1-ლი კორპუსის მიმდებარედ", "phone": "00995599922159", "type": "საჯარო ბაგა-ბაღი", "email": "164bagabagi@gmail.com", "registration_code": 406309882, "facebook_link": "https://www.facebook.com/p/%E1%83%A5%E1%83%97%E1%83%91%E1%83%98%E1%83%9A%E1%83%98%E1%83%A1%E1%83%98%E1%83%A1-N164-%E1%83%A1%E1%83%90%E1%83%91%E1%83%90%E1%83%95%E1%83%A8%E1%83%95%E1%83%9D-%E1%83%91%E1%83%90%E1%83%92%E1%83%90-%E1%83%91%E1%83%90%E1%83%A6%E1%83%98-61555894094116/", "image": "https://scontent-cph2-1.xx.fbcdn.net/v/t1.6435-9/203063854_4718683404814889_6470815013387557286_n.jpg?_nc_cat=107&ccb=1-7&_nc_sid=f727a1&_nc_ohc=2haq0nrmVbgQ7kNvwFNF0zb&_nc_oc=Admd4cL4jKjtUz_69S8-wqk6ntVLQ5T7mNGDkjZLUBMhoxWwPLFr2XPbeO5fm8tALIK877RaSGrrxhw-FcR1N-qD&_nc_zt=23&_nc_ht=scontent-cph2-1.xx&_nc_gid=zi8sP3ph5S6NZBPjab0j9g&oh=00_AfeUxJLBb0xBU2UKqcitoXsKR_nedhsFfznZL6_gdDAV4Q&oe=69135861" }, "geometry": { "type": "Point", "coordinates": [ 44.879512951560912, 41.694374725126089 ] } },
{ "type": "Feature", "properties": { "id": 135, "name": "ბაღი 11", "name_location": "დიღმის მასივი VI კვ.", "phone": "00995322518228", "type": "საჯარო ბაგა-ბაღი" }, "geometry": { "type": "Point", "coordinates": [ 44.770718339968695, 41.761593283338954 ] } },
{ "type": "Feature", "properties": { "id": 136, "name": "ბაღი 19", "name_location": "დიღმის მასივი V კვ.,სანდრო ახმეტელის შეს. 2", "phone": "00995322524336", "type": "საჯარო ბაგა-ბაღი" }, "geometry": { "type": "Point", "coordinates": [ 44.776815412959301, 41.765684030523701 ] } },
{ "type": "Feature", "properties": { "id": 137, "name": "ბაღი 23", "name_location": "დიღმის მასივი IV კვ.", "phone": "00995322523981", "type": "საჯარო ბაგა-ბაღი" }, "geometry": { "type": "Point", "coordinates": [ 44.776789025685304, 41.76323349703835 ] } },
{ "type": "Feature", "properties": { "id": 138, "name": "ბაღი 24", "name_location": "წერეთლის გამზირი 110", "phone": "00995322341075", "type": "საჯარო ბაგა-ბაღი" }, "geometry": { "type": "Point", "coordinates": [ 44.781718745333094, 41.735400778727751 ] } },
{ "type": "Feature", "properties": { "id": 139, "name": "ბაღი 39", "name_location": "დიღმის მასივი III კვ (დროებით ფუნქციონირებს 42-ე და 99-ე ბაგა-ბაღებში)", "phone": "00995599870252", "type": "საჯარო ბაგა-ბაღი" }, "geometry": { "type": "Point", "coordinates": [ 44.777723116412751, 41.756665615269952 ] } },
{ "type": "Feature", "properties": { "id": 140, "name": "ბაღი 40", "name_location": "მიქელაძის 6, დიღმის მასივი V კვ.", "phone": "00995322523098", "type": "საჯარო ბაგა-ბაღი" }, "geometry": { "type": "Point", "coordinates": [ 44.773116018981597, 41.763261215849852 ] } },
{ "type": "Feature", "properties": { "id": 141, "name": "ბაღი 42", "name_location": "დიღმის მასივი I კვ.", "phone": "00995322524388", "type": "საჯარო ბაგა-ბაღი" }, "geometry": { "type": "Point", "coordinates": [ 44.771126452788899, 41.758100228662997 ] } },
{ "type": "Feature", "properties": { "id": 142, "name": "ბაღი 90", "name_location": "ბათუმის შესახვევი 6", "phone": "00995322341759", "type": "საჯარო ბაგა-ბაღი" }, "geometry": { "type": "Point", "coordinates": [ 44.790188353043249, 41.727268970218446 ] } },
{ "type": "Feature", "properties": { "id": 143, "name": "ბაღი 91", "name_location": "წერეთლის გამზირი 136", "phone": "00995322342598", "type": "საჯარო ბაგა-ბაღი" }, "geometry": { "type": "Point", "coordinates": [ 44.77696044959395, 41.746892309021845 ] } },
{ "type": "Feature", "properties": { "id": 144, "name": "ბაღი 92", "name_location": "სამტრედიის 38", "phone": "00995322340492", "type": "საჯარო ბაგა-ბაღი" }, "geometry": { "type": "Point", "coordinates": [ 44.773579754769955, 41.7419388174403 ] } },
{ "type": "Feature", "properties": { "id": 145, "name": "ბაღი 6", "name_location": "ვანის ქუჩა 4", "phone": "00995322340958", "type": "საჯარო ბაგა-ბაღი" }, "geometry": { "type": "Point", "coordinates": [ 44.790744964761402, 41.720671420062651 ] } },
{ "type": "Feature", "properties": { "id": 146, "name": "ბაღი 99", "name_location": "დიღმის მასივი V, სანდრო ახმეტელის შესახვევი 2", "phone": "00995322522683", "type": "საჯარო ბაგა-ბაღი", "email": " oliko62@mail.ru", "registration_code": 201946216, "facebook_link": "https://www.facebook.com/p/99-%E1%83%94-%E1%83%91%E1%83%90%E1%83%92%E1%83%90-%E1%83%91%E1%83%90%E1%83%A6%E1%83%98-100086359990894/" }, "geometry": { "type": "Point", "coordinates": [ 44.773142190042051, 41.7656269840083 ] } },
{ "type": "Feature", "properties": { "id": 147, "name": "ბაღი 15", "name_location": "ბაფრინდაულის 6", "phone": "00995570107809", "type": "საჯარო ბაგა-ბაღი" }, "geometry": { "type": "Point", "coordinates": [ 44.784593213652698, 41.7287582973726 ] } },
{ "type": "Feature", "properties": { "id": null, "name": "ტესტ", "name_location": "test", "phone": "test", "email": null, "registration_code": null, "facebook_link": null, "image": null, "phone_1": null }, "geometry": { "type": "Point", "coordinates": [ 16.192174307081473, 58.588476711541468 ] } },
{ "type": "Feature", "properties": { "id": 149, "name": "ბაღი 93", "name_location": "მიხეილ ჭიაურელის 18 მიმდებარედ", "phone": "00995593501180", "type": "საჯარო ბაგა-ბაღი", "email": "93bagabagi@gmail.com", "registration_code": 402132125, "facebook_link": "https://www.facebook.com/p/93%E1%83%94-%E1%83%A1%E1%83%90%E1%83%91%E1%83%90%E1%83%95%E1%83%A8%E1%83%95%E1%83%9D-%E1%83%91%E1%83%90%E1%83%92%E1%83%90-%E1%83%91%E1%83%90%E1%83%A6%E1%83%98-100063519818455/", "image": "https://scontent-cph2-1.xx.fbcdn.net/v/t1.6435-9/169683243_140099058117421_411281034094557837_n.jpg?_nc_cat=107&ccb=1-7&_nc_sid=cc71e4&_nc_ohc=3IASoSzIJNQQ7kNvwHogREb&_nc_oc=Admd_D2jxO_0DyJTYBhvwQsKvu3QTNynel26b5h3pWPkerKrQCRu5n1f5QTy9h88e95XD2oV99Pn5JNzAx5TSkTT&_nc_zt=23&_nc_ht=scontent-cph2-1.xx&_nc_gid=XmkQnL58D3QcUNm_H6yWyQ&oh=00_AfczexagveObSdwtBSoVzLaz1dAupUMgy9OFks-Ho5zP2Q&oe=6913655B" }, "geometry": { "type": "Point", "coordinates": [ 44.772573030979146, 41.773213773079966 ] } },
{ "type": "Feature", "properties": { "id": 150, "name": "ბაღი 38", "name_location": "ზუბალიძის 3", "phone": "00995551551606", "type": "საჯარო ბაგა-ბაღი" }, "geometry": { "type": "Point", "coordinates": [ 44.7898669, 41.729506613687086 ] } },
{ "type": "Feature", "properties": { "id": 151, "name": "ბაღი 149", "name_location": "წავკისი", "phone": "00995322309281", "type": "საჯარო ბაგა-ბაღი" }, "geometry": { "type": "Point", "coordinates": [ 44.742328334171802, 41.668122475898102 ] } },
{ "type": "Feature", "properties": { "id": 152, "name": "ბაღი 147", "name_location": "შინდისი", "phone": "00995599950674", "type": "საჯარო ბაგა-ბაღი" }, "geometry": { "type": "Point", "coordinates": [ 44.771336174080098, 41.664571823837498 ] } },
{ "type": "Feature", "properties": { "id": 153, "name": "ბაღი 146", "name_location": "კოჯორი", "phone": "00995322514718", "type": "საჯარო ბაგა-ბაღი" }, "geometry": { "type": "Point", "coordinates": [ 44.700607593480797, 41.661359050069152 ] } },
{ "type": "Feature", "properties": { "id": 154, "name": "ბაღი 148", "name_location": "ტაბახმელა", "phone": "00995322308114", "type": "საჯარო ბაგა-ბაღი", "email": "bagi.tab01@gmail.com", "registration_code": 254406101, "facebook_link": "https://www.facebook.com/groups/742025612554965/", "phone_1": "00995599516994" }, "geometry": { "type": "Point", "coordinates": [ 44.754303136945495, 41.648759715718519 ] } },
{ "type": "Feature", "properties": { "id": 155, "name": "ბაღი 3", "name_location": "გოგებაშვილის 39", "phone": "00995322223260", "type": "საჯარო ბაგა-ბაღი" }, "geometry": { "type": "Point", "coordinates": [ 44.782119518140803, 41.703615213139798 ] } },
{ "type": "Feature", "properties": { "id": 156, "name": "ბაღი 4", "name_location": "შალვა დადიანის 15", "phone": "00995322984329", "type": "საჯარო ბაგა-ბაღი", "email": "ninokvelaidze24@gmail.com", "registration_code": 203853776, "facebook_link": "https://www.facebook.com/p/%E1%83%A5%E1%83%97%E1%83%91%E1%83%98%E1%83%9A%E1%83%98%E1%83%A1%E1%83%98%E1%83%A1-N-4-%E1%83%A1%E1%83%90%E1%83%91%E1%83%90%E1%83%95%E1%83%A8%E1%83%95%E1%83%9D-%E1%83%91%E1%83%90%E1%83%92%E1%83%90-%E1%83%91%E1%83%90%E1%83%A6%E1%83%98-61556577531712/", "phone_1": "00995599870297" }, "geometry": { "type": "Point", "coordinates": [ 44.801996305759346, 41.690304744722752 ] } },
{ "type": "Feature", "properties": { "id": 157, "name": "ბაღი 55", "name_location": "ბესიკის 25", "phone": "00995322932265", "type": "საჯარო ბაგა-ბაღი" }, "geometry": { "type": "Point", "coordinates": [ 44.793974282395354, 41.696790676756599 ] } },
{ "type": "Feature", "properties": { "id": 158, "name": "ბაღი 150", "name_location": "ბერიძის 2", "phone": "00995322932647", "type": "საჯარო ბაგა-ბაღი" }, "geometry": { "type": "Point", "coordinates": [ 44.7957872696037, 41.693763213479897 ] } },
{ "type": "Feature", "properties": { "id": 159, "name": "ბაღი 155", "name_location": "თაბუკაშვილის 23", "phone": "00995322990413", "type": "საჯარო ბაგა-ბაღი" }, "geometry": { "type": "Point", "coordinates": [ 44.798337996239354, 41.700832872638102 ] } },
{ "type": "Feature", "properties": { "id": 160, "name": "ბაღი 170", "name_location": "შანიძის 28", "phone": "00995322220287", "type": "საჯარო ბაგა-ბაღი" }, "geometry": { "type": "Point", "coordinates": [ 44.780813355440856, 41.704627247126496 ] } },
{ "type": "Feature", "properties": { "id": 161, "name": "ბაღი 172", "name_location": "პეტრიაშვილის ჩიხი 5", "phone": "00995322225842", "type": "საჯარო ბაგა-ბაღი" }, "geometry": { "type": "Point", "coordinates": [ 44.779209161743452, 41.707321229954651 ] } },
{ "type": "Feature", "properties": { "id": 162, "name": "ბაღი 162", "name_location": "თბილისის ქუჩა 24 (ოქროყანა)", "phone": "00995322936664", "type": "საჯარო ბაგა-ბაღი", "email": "n.tsiklauri162@gmail.com", "registration_code": 203853721, "facebook_link": "https://www.facebook.com/groups/597721735092949/" }, "geometry": { "type": "Point", "coordinates": [ 44.767931738976792, 41.686216757669932 ] } },
{ "type": "Feature", "properties": { "id": 163, "name": "ბაღი 144", "name_location": "კოჯრის 6", "phone": "00995322932020", "type": "საჯარო ბაგა-ბაღი" }, "geometry": { "type": "Point", "coordinates": [ 44.794805062653552, 41.68884744410505 ] } },
{ "type": "Feature", "properties": { "id": 164, "name": "ბაღი 152", "name_location": "ბარნოვის 62", "phone": "00995322293755", "type": "საჯარო ბაგა-ბაღი" }, "geometry": { "type": "Point", "coordinates": [ 44.780813355440856, 41.704627247126496 ] } },
{ "type": "Feature", "properties": { "id": 165, "name": "ბაღი 10", "name_location": "პაატა სააკაძის 21", "phone": "00995322957509", "type": "საჯარო ბაგა-ბაღი" }, "geometry": { "type": "Point", "coordinates": [ 44.814919712347347, 41.708405693904453 ] } },
{ "type": "Feature", "properties": { "id": 166, "name": "ბაღი 94", "name_location": "სენაკის 5ბ / ჭალადიდის 9", "phone": "00995322957510", "type": "საჯარო ბაგა-ბაღი", "email": "94sabavshvobagi@gmail.com", "registration_code": 202174422, "facebook_link": "https://www.facebook.com/p/%E1%83%A5%E1%83%97%E1%83%91%E1%83%98%E1%83%9A%E1%83%98%E1%83%A1%E1%83%98%E1%83%A1-N94-%E1%83%94-%E1%83%A1%E1%83%90%E1%83%91%E1%83%90%E1%83%95%E1%83%A8%E1%83%95%E1%83%9D-%E1%83%91%E1%83%90%E1%83%92%E1%83%90-%E1%83%91%E1%83%90%E1%83%A6%E1%83%98-100064757104432/" }, "geometry": { "type": "Point", "coordinates": [ 44.815902624406803, 41.717558955080897 ] } },
{ "type": "Feature", "properties": { "id": 167, "name": "ბაღი 125", "name_location": "ქინქლაძის 24", "phone": "00995322957936", "type": "საჯარო ბაგა-ბაღი" }, "geometry": { "type": "Point", "coordinates": [ 44.805903492331353, 41.716650529182147 ] } },
{ "type": "Feature", "properties": { "id": 168, "name": "ბაღი 131", "name_location": "ცოტნე დადიანის 27", "phone": "00995591551397", "type": "საჯარო ბაგა-ბაღი" }, "geometry": { "type": "Point", "coordinates": [ 44.8006000077227, 41.722636885994703 ] } },
{ "type": "Feature", "properties": { "id": 169, "name": "ბაღი 2", "name_location": "უშანგი ჩხეიძის 13", "phone": "00995322952205", "type": "საჯარო ბაგა-ბაღი" }, "geometry": { "type": "Point", "coordinates": [ 44.792155765666351, 41.710134588648444 ] } },
{ "type": "Feature", "properties": { "id": 170, "name": "ბაღი 5", "name_location": "არნოლდ ჩიქობავას 18", "phone": "00995322952698", "type": "საჯარო ბაგა-ბაღი", "email": "nana.beradze@yahoo.com", "registration_code": 202174397 }, "geometry": { "type": "Point", "coordinates": [ 44.804759855126598, 41.706868355100148 ] } },
{ "type": "Feature", "properties": { "id": 171, "name": "ბაღი 34", "name_location": "ტერენტი გრანელის 17", "phone": "00995322965832", "type": "საჯარო ბაგა-ბაღი", "email": "lalikem@yahoo.com", "registration_code": 202174379, "facebook_link": "https://www.facebook.com/34kindergarten/", "image": "https://scontent-cph2-1.xx.fbcdn.net/v/t39.30808-6/475311519_1085795523346365_123876087374388253_n.jpg?_nc_cat=103&ccb=1-7&_nc_sid=cc71e4&_nc_ohc=KEzJGl6fSEQQ7kNvwHNDSNK&_nc_oc=AdmaR1NK0_Zi9TUnZdJK5YzWyM-uDR_WaoUfe-Pq9JJBlJEjVAWABfS79j61BrTPRdixuPeWH04CVxsJq6TZL9Qe&_nc_zt=23&_nc_ht=scontent-cph2-1.xx&_nc_gid=x_qjSCVP1R2X51qsr_zSvw&oh=00_Afc9VtBK80jAIdUusOX3Mwaa_OjSrjpiJW9Mj7GCav5MBA&oe=68F1B14A" }, "geometry": { "type": "Point", "coordinates": [ 44.807167280071553, 41.710175517401197 ] } },
{ "type": "Feature", "properties": { "id": 172, "name": "ბაღი 95", "name_location": "დოდო აბაშიძის 4", "phone": "00995322955937", "type": "საჯარო ბაგა-ბაღი" }, "geometry": { "type": "Point", "coordinates": [ 44.797285795924196, 41.706977589921848 ] } },
{ "type": "Feature", "properties": { "id": 173, "name": "ბაღი 96", "name_location": "ჩხეიძის 13", "phone": "00995322959589", "type": "საჯარო ბაგა-ბაღი", "email": "dodomotsonelidze@gmail.com / dodobebia@mail.ru", "registration_code": 202174388, "facebook_link": "https://www.facebook.com/p/%E1%83%97%E1%83%91%E1%83%98%E1%83%9A%E1%83%98%E1%83%A1%E1%83%98%E1%83%A1-N96-%E1%83%A1%E1%83%90%E1%83%91%E1%83%90%E1%83%95%E1%83%A8%E1%83%95%E1%83%9D-%E1%83%91%E1%83%90%E1%83%92%E1%83%90-%E1%83%91%E1%83%90%E1%83%A6%E1%83%98-61556364386514/", "phone_1": "00995599870124" }, "geometry": { "type": "Point", "coordinates": [ 44.808504628317472, 41.701570689036245 ] } },
{ "type": "Feature", "properties": { "id": 174, "name": "ბაღი 119", "name_location": "ჯავახიშვილის 59", "phone": "00995322953844", "type": "საჯარო ბაგა-ბაღი" }, "geometry": { "type": "Point", "coordinates": [ 44.801368744573296, 41.710528336896104 ] } },
{ "type": "Feature", "properties": { "id": 175, "name": "ბაღი 132", "name_location": "ბირთველაშვილის 8ა", "phone": "00995322958707", "type": "საჯარო ბაგა-ბაღი", "email": "132sabavshvobagi@gmail.com", "registration_code": 405066039, "facebook_link": "https://www.facebook.com/p/%E1%83%A5%E1%83%97%E1%83%91%E1%83%98%E1%83%9A%E1%83%98%E1%83%A1%E1%83%98%E1%83%A1-N132-%E1%83%A1%E1%83%90%E1%83%91%E1%83%90%E1%83%95%E1%83%A8%E1%83%95%E1%83%9D-%E1%83%91%E1%83%90%E1%83%A6%E1%83%98-61555967865326/", "phone_1": "00995551132288" }, "geometry": { "type": "Point", "coordinates": [ 44.802587496271414, 41.707014415430613 ] } },
{ "type": "Feature", "properties": { "id": 176, "name": "ბაღი 98", "name_location": "ცოტნე დადიანის 98", "phone": "00995322954467", "type": "საჯარო ბაგა-ბაღი" }, "geometry": { "type": "Point", "coordinates": [ 44.800477454722298, 41.724016127747305 ] } },
{ "type": "Feature", "properties": { "id": 177, "name": "ბაღი 69", "name_location": "ჩიტაიას 6", "phone": "00995322969573", "type": "საჯარო ბაგა-ბაღი", "email": "bagabagi69@gmail.com", "registration_code": 402058759, "facebook_link": "https://www.facebook.com/kindergartenTBILISI69/", "image": "https://scontent-cph2-1.xx.fbcdn.net/v/t39.30808-6/490117482_1233574148776498_7229255159477960745_n.jpg?_nc_cat=101&ccb=1-7&_nc_sid=cc71e4&_nc_ohc=1Z8MuRQe3sIQ7kNvwFYMvMD&_nc_oc=Adk_thGhjHbq7skLnbVW8oziRC3uKOFwiw44MS9jnczWmMBLvUI4NBWnyRb1Zb7_DhwK52pECzcq_0LYOelGWUTA&_nc_zt=23&_nc_ht=scontent-cph2-1.xx&_nc_gid=PjYZD3bCnZRAEbqJuPB8dQ&oh=00_AfcHq-PI2x34U103BK3uO3xHm-NQSMGmZvTtbMSYRrt0bg&oe=68F1CCD1", "phone_1": "00995599803827" }, "geometry": { "type": "Point", "coordinates": [ 44.802737926703067, 41.712832120937229 ] } },
{ "type": "Feature", "properties": { "id": 178, "name": "ბაღი 68", "name_location": "პალიასტომის 1", "phone": "00995322201303", "type": "საჯარო ბაგა-ბაღი", "email": "68kindergarten0@gmail.com", "registration_code": 402090054, "facebook_link": "https://www.facebook.com/kindergarten68/", "image": "https://scontent-cph2-1.xx.fbcdn.net/v/t1.6435-9/84187374_554427158489171_7627792064347897856_n.jpg?_nc_cat=110&ccb=1-7&_nc_sid=6ee11a&_nc_ohc=BGemhOwNdMgQ7kNvwEfCqEG&_nc_oc=Adnt-5mqniArTADvzqwJeEPbQyKYcsLf-k-J0f0lbNMV_I6VTWTNWtl2YleYcRNOflNpF0_6ITuaVXPiEyIYAmG6&_nc_zt=23&_nc_ht=scontent-cph2-1.xx&_nc_gid=msOA9Rgh9Bmj_GxdWxNg_Q&oh=00_Afe_OQPe0vO_zF88w_Nko29jjeAhoY_IiujMx2RyeEHJhA&oe=69135249" }, "geometry": { "type": "Point", "coordinates": [ 44.80592038219902, 41.713692545352067 ] } },
{ "type": "Feature", "properties": { "id": 179, "name": "ბაღი 191", "name_location": "ნინო ნაკაშიძის 26", "phone": "00995322931399", "type": "საჯარო ბაგა-ბაღი", "email": "191bagi@mail.ru", "registration_code": 204423043, "facebook_link": "https://www.facebook.com/people/191-%E1%83%94-%E1%83%91%E1%83%90%E1%83%92%E1%83%90-%E1%83%91%E1%83%90%E1%83%A6%E1%83%98/100063770311891/", "image": "https://scontent-cph2-1.xx.fbcdn.net/v/t39.30808-6/304897174_485043146964692_8850673492799698203_n.jpg?_nc_cat=106&ccb=1-7&_nc_sid=6ee11a&_nc_ohc=3jeBZDzsLn4Q7kNvwFWp_Pf&_nc_oc=Adn1VFS2iLs-hhVXOH9P892sWYT7iB7ikEnEcTNhutZF_KwEM_aDP59NKjf_h6Vy_EUlGIKbIesUHpshU6oEAkjp&_nc_zt=23&_nc_ht=scontent-cph2-1.xx&_nc_gid=qR82fNxf8v1WDEEzaxxCnQ&oh=00_Aff48XI5pHFfWb2LlwLI40eaKQ51q814iNl0V-dKJsHGsw&oe=68F1AF81" }, "geometry": { "type": "Point", "coordinates": [ 44.804968771354794, 41.695656515927993 ] } },
{ "type": "Feature", "properties": { "id": 180, "name": "ბაღი 200", "name_location": "ლერმონტოვის 4", "phone": "00995322933709", "type": "საჯარო ბაგა-ბაღი" }, "geometry": { "type": "Point", "coordinates": [ 44.802638563453101, 41.691102286343302 ] } },
{ "type": "Feature", "properties": { "id": 181, "name": "ბაღი 20", "name_location": "კრწანისის 12/21", "phone": "00995322933709", "type": "საჯარო ბაგა-ბაღი" }, "geometry": { "type": "Point", "coordinates": [ 44.818504612722052, 41.674864901807396 ] } },
{ "type": "Feature", "properties": { "id": 182, "name": "ბაღი 36", "name_location": "რუსთავის გზატკეცილი 30", "phone": "00995322403324", "type": "საჯარო ბაგა-ბაღი" }, "geometry": { "type": "Point", "coordinates": [ 44.907922772332448, 41.651588836666747 ] } },
{ "type": "Feature", "properties": { "id": 183, "name": "ბაღი 58", "name_location": "გორგასლის 111", "phone": "00995322724547", "type": "საჯარო ბაგა-ბაღი" }, "geometry": { "type": "Point", "coordinates": [ 44.846231342239804, 41.669609773078406 ] } },
{ "type": "Feature", "properties": { "id": 184, "name": "ბაღი 71", "name_location": "ქვემო ფონიჭალა", "phone": "00995322403096", "type": "საჯარო ბაგა-ბაღი", "registration_code": 204423061, "facebook_link": "https://www.facebook.com/p/%E1%83%A5-%E1%83%97%E1%83%91%E1%83%98%E1%83%9A%E1%83%98%E1%83%A1%E1%83%98%E1%83%A1-71-%E1%83%94-%E1%83%A1%E1%83%90%E1%83%91%E1%83%90%E1%83%95%E1%83%A8%E1%83%95%E1%83%9D-%E1%83%91%E1%83%90%E1%83%92%E1%83%90-%E1%83%91%E1%83%90%E1%83%A6%E1%83%98-61556433100869/" }, "geometry": { "type": "Point", "coordinates": [ 44.90913178679142, 41.644580539409191 ] } },
{ "type": "Feature", "properties": { "id": 185, "name": "ბაღი 51", "name_location": "გორგასლის 43", "phone": "00995322722687", "type": "საჯარო ბაგა-ბაღი" }, "geometry": { "type": "Point", "coordinates": [ 44.823689, 41.682402 ] } },
{ "type": "Feature", "properties": { "id": 186, "name": "ბაღი 209", "name_location": "ზემო ფონიჭალა", "phone": "00995322750125", "type": "საჯარო ბაგა-ბაღი" }, "geometry": { "type": "Point", "coordinates": [ 44.899505880955047, 41.644559039682349 ] } },
{ "type": "Feature", "properties": { "id": 187, "name": "ბაღი 206", "name_location": "ზემო ფონიჭალა", "phone": "00995577644808", "type": "საჯარო ბაგა-ბაღი" }, "geometry": { "type": "Point", "coordinates": [ 44.9034, 41.648099 ] } },
{ "type": "Feature", "properties": { "id": 188, "name": "ბაღი 145", "name_location": "გორგასლის IV შესახვევი 4", "phone": "00995322722519", "type": "საჯარო ბაგა-ბაღი" }, "geometry": { "type": "Point", "coordinates": [ 44.815242982833354, 41.686728239488602 ] } },
{ "type": "Feature", "properties": { "id": 189, "name": "ბაღი 81", "name_location": "სოფელი ფონიჭალა", "phone": "00995322203444", "type": "საჯარო ბაგა-ბაღი", "email": "81bagabagi@gmail.com", "registration_code": 404580299, "facebook_link": "https://www.facebook.com/81bagabagi/", "image": "https://scontent-cph2-1.xx.fbcdn.net/v/t39.30808-6/486770415_1264408902355317_4106706918245338346_n.jpg?_nc_cat=102&ccb=1-7&_nc_sid=86c6b0&_nc_ohc=lrnxbC3h7-gQ7kNvwH3dAMp&_nc_oc=AdlW6xBGdeXlF_oK2L0D0ZIPsSLopPtg3GGvXseItojwVIflIR7EdYocBZ6L066nCIsAZiaUTNyOeU92IPGyQIBx&_nc_zt=23&_nc_ht=scontent-cph2-1.xx&_nc_gid=FaPlixWOce3FmiWhF2eeqA&oh=00_AfeVwrxV50CcnCjA194K6Np77h2gg5mjXONNWmCoDomfeA&oe=68F1B2A7" }, "geometry": { "type": "Point", "coordinates": [ 44.916005557010827, 41.640331258993221 ] } },
{ "type": "Feature", "properties": { "id": 190, "name": "ბაღი 108", "name_location": "ორთაჭალის ქუჩა 97", "phone": "00995322157108", "type": "საჯარო ბაგა-ბაღი", "email": "bagabagi1082023@gmail.com", "registration_code": 404669621, "facebook_link": "https://www.facebook.com/p/%E1%83%97%E1%83%91%E1%83%98%E1%83%9A%E1%83%98%E1%83%A1%E1%83%98%E1%83%A1-N108-%E1%83%A1%E1%83%90%E1%83%91%E1%83%90%E1%83%95%E1%83%A8%E1%83%95%E1%83%9D-%E1%83%91%E1%83%90%E1%83%92%E1%83%90-%E1%83%91%E1%83%90%E1%83%A6%E1%83%98-61551881202490/", "image": "https://scontent-cph2-1.xx.fbcdn.net/v/t39.30808-6/386599012_122101085012069378_390008198680609915_n.jpg?_nc_cat=102&ccb=1-7&_nc_sid=6ee11a&_nc_ohc=D0zaoE0D1cIQ7kNvwHHg4gr&_nc_oc=AdmaVNZZSkp5Nvbij2c9I1vDhgiEh6pv6VKKwh83xGPFBDSJEZT6zUKi_tQLWlox3VtUVv4GbTDXTPTx_mS_X32D&_nc_zt=23&_nc_ht=scontent-cph2-1.xx&_nc_gid=wzeFWLyiaQca-YaEkDwMEw&oh=00_AfdKxkIqSv_XelbEv2cjpF5htroLl6uEXPDtnHYDr8TVQQ&oe=68F1C9D2" }, "geometry": { "type": "Point", "coordinates": [ 44.812196514483347, 41.675758683879735 ] } },
{ "type": "Feature", "properties": { "id": 191, "name": "Kindergarten \"Golden Ville\"", "name_location": "5 Tbilisi Street, Tbilisi", "phone": "00995577556605", "type": "კერძო საბავშვო ბაღი", "email": "goldenville.kindergarten@gmail.com", "registration_code": null, "facebook_link": "https://www.facebook.com/p/Golden-Ville-Kindergarten-%E1%83%A1%E1%83%90%E1%83%91%E1%83%90%E1%83%95%E1%83%A8%E1%83%95%E1%83%9D-%E1%83%91%E1%83%90%E1%83%A6%E1%83%98-%E1%83%9D%E1%83%A5%E1%83%A0%E1%83%9D%E1%83%A7%E1%83%90%E1%83%9C%E1%83%90-61575100319760/", "image": null, "phone_1": null }, "geometry": { "type": "Point", "coordinates": [ 44.7763889, 41.685698 ] } },
{ "type": "Feature", "properties": { "id": null, "name": "test1", "name_location": "test1", "phone": null, "email": null, "registration_code": null, "facebook_link": null, "image": null, "phone_1": null }, "geometry": { "type": "Point", "coordinates": [ 16.183322871766155, 58.585715043181203 ] } },
{ "type": "Feature", "properties": { "id": null, "name": "test2", "name_location": "test2", "phone": null, "email": null, "registration_code": null, "facebook_link": null, "image": null, "phone_1": null }, "geometry": { "type": "Point", "coordinates": [ 16.185684166887391, 58.590652115711237 ] } }
]
}
